timestamp,bird_id,lat,lon,altitude,ground_speed,heading,roll,pitch,yaw,has_orientation
2026-04-04 08:15:37,G3_Madieres_Femelle_adult_[FRP-BZ0226],43.8561849,3.593368,612.2,0.03,0.0,,,,False
2026-04-04 08:30:08,G3_Madieres_Femelle_adult_[FRP-BZ0226],43.8561618,3.5933436,595.6,0.09,13.11,,,,False
2026-04-04 08:45:08,G3_Madieres_Femelle_adult_[FRP-BZ0226],43.8562051,3.5933874,606.3,0.05,207.75,,,,False
2026-04-04 09:00:29,G3_Madieres_Femelle_adult_[FRP-BZ0226],43.8621736,3.5915466,687.1,0.04,0.0,,,,False
2026-04-04 09:00:36,G3_Madieres_Femelle_adult_[FRP-BZ0226],43.8611117,3.5923535,539.4,0.01,0.0,,,,False
2026-04-04 09:15:07,G3_Madieres_Femelle_adult_[FRP-BZ0226],43.8584032,3.5625425,823.5,20.05,256.25,,,,False
2026-04-04 09:18:17,G3_Madieres_Femelle_adult_[FRP-BZ0226],43.8579906,3.5463385,881.8,11.56,26.21,,,,False
2026-04-04 09:18:18,G3_Madieres_Femelle_adult_[FRP-BZ0226],43.8580928,3.5464122,879.0,13.64,28.18,0.778495908084737,13.8028472193682,-5.21946454476702,True
2026-04-04 09:18:19,G3_Madieres_Femelle_adult_[FRP-BZ0226],43.858203,3.5464903,879.0,13.77,26.21,-0.579152014481908,8.73666331577432,-5.5341929940011,True
2026-04-04 09:18:20,G3_Madieres_Femelle_adult_[FRP-BZ0226],43.85831,3.5465612,879.7,12.91,24.9,-0.542139459988682,4.36991174796677,-7.44451818973829,True
2026-04-04 09:18:21,G3_Madieres_Femelle_adult_[FRP-BZ0226],43.8584148,3.5466225,880.1,12.53,20.97,2.25043937871918,3.48430549546616,-10.3109592133631,True
2026-04-04 09:18:22,G3_Madieres_Femelle_adult_[FRP-BZ0226],43.8585204,3.546677,879.3,12.58,19.66,4.10183165544508,9.31978527560481,-13.1533627414726,True
2026-04-04 09:18:23,G3_Madieres_Femelle_adult_[FRP-BZ0226],43.8586273,3.5467286,879.0,12.63,19.01,0.386494980963768,9.40140673770095,-17.9153095869323,True
2026-04-04 09:18:24,G3_Madieres_Femelle_adult_[FRP-BZ0226],43.8587332,3.5467712,879.3,11.94,14.42,-3.20183358766628,13.7160606398194,-27.0327776924545,True
2026-04-04 09:18:25,G3_Madieres_Femelle_adult_[FRP-BZ0226],43.8588379,3.5467878,880.8,11.58,0.66,-3.08670086635116,9.13115510135181,-36.8545214361188,True
2026-04-04 09:18:26,G3_Madieres_Femelle_adult_[FRP-BZ0226],43.8589378,3.5467675,881.5,11.11,344.72,4.8295971252389,9.44592365871292,-54.5387153423056,True
2026-04-04 09:18:27,G3_Madieres_Femelle_adult_[FRP-BZ0226],43.8590294,3.546711,880.7,11.29,329.65,5.9713377113307,14.1644383968631,-68.806433502036,True
2026-04-04 09:18:28,G3_Madieres_Femelle_adult_[FRP-BZ0226],43.8591093,3.5466235,880.1,11.43,315.23,2.24741508681919,13.8696752175233,-80.0463438246371,True
2026-04-04 09:18:29,G3_Madieres_Femelle_adult_[FRP-BZ0226],43.8591695,3.5465107,880.0,11.32,299.5,4.35595058608568,14.3257692471515,-91.6546636712806,True
2026-04-04 09:18:30,G3_Madieres_Femelle_adult_[FRP-BZ0226],43.8592077,3.5463826,879.7,11.12,286.39,1.46914984708663,14.8262181195936,-104.61584865906,True
2026-04-04 09:18:31,G3_Madieres_Femelle_adult_[FRP-BZ0226],43.8592206,3.5462496,879.7,10.76,270.66,3.35442567550939,12.1597133193942,-117.221563852178,True
2026-04-04 09:18:32,G3_Madieres_Femelle_adult_[FRP-BZ0226],43.859204,3.5461169,879.5,11.11,252.97,8.17093252007631,10.207040901163,-124.717459066922,True
2026-04-04 09:18:33,G3_Madieres_Femelle_adult_[FRP-BZ0226],43.859167,3.5459857,878.9,11.53,245.76,3.4794179167075,9.1546261870846,-131.915961323051,True
2026-04-04 09:18:34,G3_Madieres_Femelle_adult_[FRP-BZ0226],43.859118,3.5458529,877.7,12.36,240.52,6.02016003536179,9.02446459440789,-137.065175130479,True
2026-04-04 09:18:35,G3_Madieres_Femelle_adult_[FRP-BZ0226],43.8590554,3.5457149,876.2,13.64,235.27,4.93647212120265,10.9500367169964,-139.274755071731,True
2026-04-04 09:18:36,G3_Madieres_Femelle_adult_[FRP-BZ0226],43.8589832,3.54557,875.0,14.51,234.62,6.64562492533154,12.8010501157415,-138.899752118013,True
2026-04-04 09:18:37,G3_Madieres_Femelle_adult_[FRP-BZ0226],43.8589076,3.5454193,874.3,14.94,235.27,4.77164161003126,13.5169207983215,-138.033774911617,True
2026-04-04 09:18:38,G3_Madieres_Femelle_adult_[FRP-BZ0226],43.8588337,3.5452649,874.4,14.86,237.24,2.19377881006158,12.1073748704541,-135.783093266364,True
2026-04-04 09:18:39,G3_Madieres_Femelle_adult_[FRP-BZ0226],43.858765,3.5451097,875.0,14.48,239.21,0.363686988782594,10.0421346866745,-134.494952902653,True
2026-04-04 09:18:40,G3_Madieres_Femelle_adult_[FRP-BZ0226],43.8586986,3.5449583,875.8,14.09,237.9,2.14009180363983,10.9127297831335,-135.97716825844,True
2026-04-04 09:18:41,G3_Madieres_Femelle_adult_[FRP-BZ0226],43.8586319,3.5448113,877.0,13.85,237.24,2.41279606446671,10.7966382502421,-137.13525085525,True
2026-04-04 09:18:42,G3_Madieres_Femelle_adult_[FRP-BZ0226],43.8585661,3.5446687,878.5,13.42,237.24,6.68704789227936,12.1257411414935,-132.129434284282,True
2026-04-04 09:18:43,G3_Madieres_Femelle_adult_[FRP-BZ0226],43.858505,3.544531,880.0,12.72,239.21,3.46866501979744,9.34235115904832,-126.570344687296,True
2026-04-04 09:18:44,G3_Madieres_Femelle_adult_[FRP-BZ0226],43.8584528,3.544396,881.2,12.06,243.14,6.21998737641259,7.01886029796237,-120.425583229231,True
2026-04-04 09:18:45,G3_Madieres_Femelle_adult_[FRP-BZ0226],43.8584119,3.5442597,881.5,11.79,250.35,1.97016710562116,10.5948501461521,-114.610752464921,True
2026-04-04 09:18:46,G3_Madieres_Femelle_adult_[FRP-BZ0226],43.8583862,3.5441172,881.8,11.93,259.52,5.4722307240176,13.4269664603325,-97.4661855381133,True
2026-04-04 09:18:47,G3_Madieres_Femelle_adult_[FRP-BZ0226],43.8583783,3.5439741,882.5,11.37,269.35,9.41268792580986,14.6041978901864,-77.163251289776,True
2026-04-04 09:18:48,G3_Madieres_Femelle_adult_[FRP-BZ0226],43.8583967,3.543847,883.0,10.06,289.67,8.86023944767053,19.3911444946481,-55.724178149057,True
2026-04-04 09:18:49,G3_Madieres_Femelle_adult_[FRP-BZ0226],43.8584467,3.543758,883.1,8.91,320.47,2.77420064221817,22.040946896085,-36.382288203553,True
2026-04-04 09:18:50,G3_Madieres_Femelle_adult_[FRP-BZ0226],43.8585159,3.5437182,883.3,8.32,348.65,4.67387136887507,21.5499146960793,-15.6741914282456,True
2026-04-04 09:18:51,G3_Madieres_Femelle_adult_[FRP-BZ0226],43.8585851,3.5437283,883.6,7.77,7.86,7.17814545962096,19.5877533151063,6.47557831768178,True
2026-04-04 09:18:52,G3_Madieres_Femelle_adult_[FRP-BZ0226],43.8586403,3.5437856,883.4,8.11,47.84,2.78686575029271,19.5705538748522,25.7935302073348,True
2026-04-04 09:18:53,G3_Madieres_Femelle_adult_[FRP-BZ0226],43.8586751,3.5438812,883.0,9.21,71.43,2.57223283240696,20.0057536064586,42.5256984073596,True
2026-04-04 09:18:54,G3_Madieres_Femelle_adult_[FRP-BZ0226],43.8586859,3.5440008,883.1,10.17,89.13,5.5389907344416,18.6802571767933,59.2958858557112,True
2026-04-04 09:18:55,G3_Madieres_Femelle_adult_[FRP-BZ0226],43.8586704,3.5441269,883.3,10.54,105.51,6.46101470897773,18.3351357857741,75.6987705215585,True
2026-04-04 09:18:56,G3_Madieres_Femelle_adult_[FRP-BZ0226],43.858624,3.5442443,883.5,11.19,126.48,7.89552462359915,18.8504399617786,95.5951990882081,True
2026-04-04 09:18:57,G3_Madieres_Femelle_adult_[FRP-BZ0226],43.8585465,3.5443391,883.6,11.97,145.49,6.90238431281832,18.6525121679599,118.20095717635,True
2026-04-04 09:18:58,G3_Madieres_Femelle_adult_[FRP-BZ0226],43.8584429,3.5443979,883.4,12.94,164.5,9.13092156038765,19.4742651131159,139.12241224525,True
2026-04-04 09:18:59,G3_Madieres_Femelle_adult_[FRP-BZ0226],43.8583234,3.5444065,882.8,13.85,184.16,3.22888669422178,18.758897360198,159.911428345134,True
2026-04-04 09:19:00,G3_Madieres_Femelle_adult_[FRP-BZ0226],43.8581997,3.544367,881.8,14.42,197.92,10.2732241672743,21.6883530575364,-1.77936083215386,True
2026-04-04 09:19:01,G3_Madieres_Femelle_adult_[FRP-BZ0226],43.8580888,3.5442779,881.4,14.51,217.58,3.76306824225084,22.8998185883909,-165.693248807265,True
2026-04-04 09:19:02,G3_Madieres_Femelle_adult_[FRP-BZ0226],43.8580065,3.5441469,881.9,13.9,236.58,5.36376852580393,21.3430920311253,-146.39242617546,True
2026-04-04 09:19:03,G3_Madieres_Femelle_adult_[FRP-BZ0226],43.8579585,3.543999,882.8,12.67,252.31,1.85758980770848,17.2756581295332,-130.788706614179,True
2026-04-04 09:19:04,G3_Madieres_Femelle_adult_[FRP-BZ0226],43.8579409,3.5438519,883.3,11.68,266.08,3.00817071474708,16.7206895980213,-114.986601470011,True
2026-04-04 09:19:05,G3_Madieres_Femelle_adult_[FRP-BZ0226],43.8579485,3.5437154,883.4,10.7,279.84,-0.664216536155659,13.988853477918,-103.69345068271,True
2026-04-04 09:19:06,G3_Madieres_Femelle_adult_[FRP-BZ0226],43.8579766,3.5435933,883.3,10.14,292.29,2.9994096077219,12.2335124095488,-94.2442365582418,True
2026-04-04 09:19:07,G3_Madieres_Femelle_adult_[FRP-BZ0226],43.8580212,3.5434873,882.9,9.77,305.4,0.555495221705494,9.65151833412931,-89.4932583554448,True
2026-04-04 09:19:08,G3_Madieres_Femelle_adult_[FRP-BZ0226],43.8580787,3.543394,882.1,9.93,313.92,-4.63666324628719,8.79735155795187,-89.3958172981004,True
2026-04-04 09:19:09,G3_Madieres_Femelle_adult_[FRP-BZ0226],43.8581427,3.5433022,881.3,10.42,313.26,-11.5553900964281,8.22896719897764,-98.1298577003145,True
2026-04-04 09:19:10,G3_Madieres_Femelle_adult_[FRP-BZ0226],43.8581953,3.5431909,880.6,11.04,296.22,-3.3662860706592,12.0736148174841,-115.301143044086,True
2026-04-04 09:19:11,G3_Madieres_Femelle_adult_[FRP-BZ0226],43.8582175,3.5430526,879.8,11.97,273.94,3.92152346055865,13.8239305048868,-131.196098889692,True
2026-04-04 09:19:12,G3_Madieres_Femelle_adult_[FRP-BZ0226],43.8582034,3.5429016,879.1,12.66,255.59,9.87384214585703,13.5990886750973,-143.227339418412,True
2026-04-04 09:19:13,G3_Madieres_Femelle_adult_[FRP-BZ0226],43.8581619,3.5427503,878.3,13.25,245.1,11.0102827033047,12.1782164779683,-149.591536148464,True
2026-04-04 09:19:14,G3_Madieres_Femelle_adult_[FRP-BZ0226],43.8581051,3.5426023,877.5,13.62,239.86,3.75747190454597,6.84620244611111,-155.838741836881,True
2026-04-04 09:19:15,G3_Madieres_Femelle_adult_[FRP-BZ0226],43.858036,3.5424563,875.6,14.25,234.62,1.77777709239706,7.39431081632683,-170.917230832453,True
2026-04-04 09:19:16,G3_Madieres_Femelle_adult_[FRP-BZ0226],43.8579465,3.5423163,873.0,15.62,224.79,6.95210499426914,8.76459560887439,-87.9635899012859,True
2026-04-04 09:19:17,G3_Madieres_Femelle_adult_[FRP-BZ0226],43.8578367,3.5421815,870.1,16.8,219.55,5.9596011584927,9.2345879552922,178.518357561923,True
2026-04-04 09:19:18,G3_Madieres_Femelle_adult_[FRP-BZ0226],43.8577127,3.5420496,867.5,17.8,216.27,4.32282459976643,10.0138959470886,177.260402530373,True
2026-04-04 09:19:19,G3_Madieres_Femelle_adult_[FRP-BZ0226],43.85758,3.5419191,865.3,18.33,214.3,6.40077863326611,5.05629015566762,142.09999486993,True
2026-04-04 09:19:20,G3_Madieres_Femelle_adult_[FRP-BZ0226],43.8574428,3.5417869,862.3,18.76,214.96,5.41564362586303,6.2627388567543,-179.097058680927,True
2026-04-04 09:19:21,G3_Madieres_Femelle_adult_[FRP-BZ0226],43.857302,3.5416459,859.2,19.72,216.27,2.16343718804667,6.48370325401014,71.5702345426999,True
2026-04-04 09:19:22,G3_Madieres_Femelle_adult_[FRP-BZ0226],43.8571579,3.5414981,856.5,20.08,216.27,1.61830370540398,8.21104105399611,-142.005952731643,True
2026-04-04 09:19:23,G3_Madieres_Femelle_adult_[FRP-BZ0226],43.8570111,3.5413506,854.8,20.26,215.61,3.353295844806,5.73470749979784,-177.226965149622,True
2026-04-04 09:19:24,G3_Madieres_Femelle_adult_[FRP-BZ0226],43.856866,3.5412022,853.7,19.98,216.92,2.19741924593724,5.16318196945899,-174.083068838036,True
2026-04-04 09:19:25,G3_Madieres_Femelle_adult_[FRP-BZ0226],43.8567259,3.5410516,852.9,19.68,218.23,1.90934437593886,5.49099922819541,-174.012055626447,True
2026-04-04 09:19:26,G3_Madieres_Femelle_adult_[FRP-BZ0226],43.8565898,3.5409,852.4,19.32,218.89,3.95217235578408,7.9504664737493,-172.062090012057,True
2026-04-04 09:19:27,G3_Madieres_Femelle_adult_[FRP-BZ0226],43.856463,3.5407471,852.9,18.38,222.17,-2.00163176093682,2.61639241128267,-170.694532394647,True
2026-04-04 09:19:28,G3_Madieres_Femelle_adult_[FRP-BZ0226],43.8563435,3.5405964,852.8,17.72,222.17,-2.78282893190082,-1.03803875689876,-169.396644600461,True
2026-04-04 09:19:29,G3_Madieres_Femelle_adult_[FRP-BZ0226],43.8562228,3.5404479,851.3,18.1,220.86,-3.41203594293801,-0.125954834247868,-169.21623003508,True
2026-04-04 09:19:30,G3_Madieres_Femelle_adult_[FRP-BZ0226],43.8560947,3.540301,849.1,18.78,218.23,7.44392184446099,6.27631992120807,-171.10790455195,True
2026-04-04 09:19:31,G3_Madieres_Femelle_adult_[FRP-BZ0226],43.8559633,3.5401493,847.4,19.26,220.2,1.92804769741151,7.3847527193277,-170.906694694363,True
2026-04-04 09:19:32,G3_Madieres_Femelle_adult_[FRP-BZ0226],43.855833,3.5399948,846.9,19.03,220.2,0.169016434365578,5.97852972163852,-169.987837029915,True
2026-04-04 09:19:33,G3_Madieres_Femelle_adult_[FRP-BZ0226],43.8557063,3.5398424,846.9,18.51,220.86,1.90155532145003,3.24896736864223,-168.311809781023,True
2026-04-04 09:19:34,G3_Madieres_Femelle_adult_[FRP-BZ0226],43.8555842,3.5396938,846.9,17.86,220.86,0.31060441146715,-0.0330974584141457,-168.380899322652,True
2026-04-04 09:19:35,G3_Madieres_Femelle_adult_[FRP-BZ0226],43.8554653,3.539547,846.0,17.61,221.51,-3.0158069097164,2.05690369570295,-170.723275759955,True
2026-04-04 09:19:36,G3_Madieres_Femelle_adult_[FRP-BZ0226],43.8553465,3.5393994,844.4,17.84,221.51,1.61648435517874,7.69670104627298,-169.40023221371,True
2026-04-04 09:19:37,G3_Madieres_Femelle_adult_[FRP-BZ0226],43.8552215,3.5392561,843.6,18.21,217.58,3.23684176351161,2.00284341282392,-171.832612181683,True
2026-04-04 09:19:38,G3_Madieres_Femelle_adult_[FRP-BZ0226],43.855096,3.5391166,843.3,17.69,218.89,2.37733705593001,1.5187675805294,-168.295240808278,True
2026-04-04 09:19:39,G3_Madieres_Femelle_adult_[FRP-BZ0226],43.8549737,3.5389736,841.9,17.87,220.86,0.323692002689159,-1.00086918314349,-166.226879650221,True
2026-04-04 09:19:40,G3_Madieres_Femelle_adult_[FRP-BZ0226],43.8548515,3.5388243,839.3,18.29,221.51,0.785591261520737,-0.508481730895894,-165.88915445151,True
2026-04-04 09:19:41,G3_Madieres_Femelle_adult_[FRP-BZ0226],43.8547271,3.5386671,835.3,18.99,222.82,0.399874877683192,6.0659011035073,-165.73111420238,True
2026-04-04 09:19:42,G3_Madieres_Femelle_adult_[FRP-BZ0226],43.8546004,3.5384983,831.5,19.97,224.13,-0.396360298672892,4.23391770302686,-166.427936539751,True
2026-04-04 09:19:43,G3_Madieres_Femelle_adult_[FRP-BZ0226],43.8544706,3.5383227,828.3,20.35,224.13,4.12454152004647,3.54781787884824,-164.836343454759,True
2026-04-04 09:19:44,G3_Madieres_Femelle_adult_[FRP-BZ0226],43.8543394,3.5381423,825.4,20.73,224.79,1.46239142507837,4.4307657254674,-163.516099323178,True
2026-04-04 09:19:45,G3_Madieres_Femelle_adult_[FRP-BZ0226],43.8542103,3.5379546,822.5,20.92,226.75,2.3370361086697,8.74671257747323,-162.558346404645,True
2026-04-04 09:19:46,G3_Madieres_Femelle_adult_[FRP-BZ0226],43.854085,3.5377615,821.1,20.89,228.07,0.233977612862807,5.49956953128538,-161.837224979848,True
2026-04-04 09:19:47,G3_Madieres_Femelle_adult_[FRP-BZ0226],43.8539658,3.5375708,821.3,19.92,229.38,-1.40960388289409,-2.07673527456952,-162.104193700284,True
2026-04-04 09:19:48,G3_Madieres_Femelle_adult_[FRP-BZ0226],43.8538514,3.5373866,820.5,19.24,228.72,0.935091533707612,-6.60132248703833,-161.840816259853,True
2026-04-04 09:19:49,G3_Madieres_Femelle_adult_[FRP-BZ0226],43.853738,3.5372048,817.2,19.32,228.72,0.158362691815809,1.64068603991867,-163.125258143345,True
2026-04-04 09:19:50,G3_Madieres_Femelle_adult_[FRP-BZ0226],43.8536202,3.5370176,812.9,20.37,228.72,4.27374882620919,7.15492639012398,-162.974370881923,True
2026-04-04 09:19:51,G3_Madieres_Femelle_adult_[FRP-BZ0226],43.8534977,3.5368232,810.4,21.01,228.72,0.320485310525496,5.85969421497823,-163.305678458784,True
2026-04-04 09:19:52,G3_Madieres_Femelle_adult_[FRP-BZ0226],43.8533765,3.5366281,809.1,20.5,229.38,0.440112721464828,5.07786865456097,-164.09924954129,True
2026-04-04 09:19:53,G3_Madieres_Femelle_adult_[FRP-BZ0226],43.8532566,3.5364409,808.6,19.89,227.41,0.939284624878356,0.907104019022447,-164.09069191127,True
2026-04-04 09:19:54,G3_Madieres_Femelle_adult_[FRP-BZ0226],43.8531373,3.5362631,807.7,19.24,226.75,3.63374379606552,-0.507024067275226,-164.372704553952,True
2026-04-04 09:19:55,G3_Madieres_Femelle_adult_[FRP-BZ0226],43.8530211,3.5360888,806.1,18.94,227.41,6.54693706642435,0.320933677396687,-161.174163533712,True
2026-04-04 09:19:56,G3_Madieres_Femelle_adult_[FRP-BZ0226],43.8529125,3.5359074,804.0,18.97,232.0,1.72574166919293,-0.776915529076107,-156.468543082671,True
2026-04-04 09:19:57,G3_Madieres_Femelle_adult_[FRP-BZ0226],43.8528126,3.5357151,801.2,19.12,235.27,0.68703518803121,0.607535892585576,-151.54974738786,True
2026-04-04 09:19:58,G3_Madieres_Femelle_adult_[FRP-BZ0226],43.8527191,3.5355113,797.5,19.6,238.55,0.540208233662229,5.49782221391279,-149.380486589557,True
2026-04-04 09:19:59,G3_Madieres_Femelle_adult_[FRP-BZ0226],43.852632,3.5352958,794.2,20.02,241.83,-1.5971032252253,6.49106533201097,-147.515643076399,True
2026-04-04 09:20:00,G3_Madieres_Femelle_adult_[FRP-BZ0226],43.8525499,3.5350761,792.6,19.83,242.48,0.387710319264791,6.08685779562542,-145.53269402594,True
2026-04-04 09:20:01,G3_Madieres_Femelle_adult_[FRP-BZ0226],43.8524733,3.5348609,792.1,18.97,243.79,-0.752519231857679,2.38191435225092,-144.11367206767,True
2026-04-04 09:20:02,G3_Madieres_Femelle_adult_[FRP-BZ0226],43.8524025,3.5346538,791.6,18.08,244.45,0.668982826663106,-1.0229006621608,-142.647722261703,True
2026-04-04 09:20:03,G3_Madieres_Femelle_adult_[FRP-BZ0226],43.8523385,3.5344506,790.2,17.7,247.07,0.764972274271546,-2.24409297572986,-138.420579674356,True
2026-04-04 09:20:04,G3_Madieres_Femelle_adult_[FRP-BZ0226],43.8522818,3.5342439,787.5,17.84,250.35,0.772560939114224,-0.843140838125175,-135.538603797279,True
2026-04-04 09:20:05,G3_Madieres_Femelle_adult_[FRP-BZ0226],43.8522337,3.5340289,784.0,18.28,254.28,2.34605077887314,2.2244244658281,-132.259486226339,True
2026-04-04 09:20:06,G3_Madieres_Femelle_adult_[FRP-BZ0226],43.8521958,3.5338041,780.5,18.78,258.21,0.39823104845222,5.06590023195062,-128.898927947311,True
2026-04-04 09:20:07,G3_Madieres_Femelle_adult_[FRP-BZ0226],43.8521687,3.5335705,777.8,19.21,262.14,-0.885441033967076,7.46004034162605,-125.774122399508,True
2026-04-04 09:20:08,G3_Madieres_Femelle_adult_[FRP-BZ0226],43.8521506,3.5333366,776.9,18.75,264.77,-0.0592459929195694,7.67259313862115,-124.779648012689,True
2026-04-04 09:20:09,G3_Madieres_Femelle_adult_[FRP-BZ0226],43.8521378,3.5331132,777.5,17.55,265.42,-3.08994781168785,5.70696401230381,-125.539983544964,True
2026-04-04 09:20:10,G3_Madieres_Femelle_adult_[FRP-BZ0226],43.8521242,3.5329055,778.9,16.28,263.45,-1.64502103127597,-2.42290340877272,-125.742813672868,True
2026-04-04 09:20:11,G3_Madieres_Femelle_adult_[FRP-BZ0226],43.8521064,3.5327118,779.5,15.3,261.49,-0.867677646140278,-7.82261341945397,-125.617779141291,True
2026-04-04 09:20:12,G3_Madieres_Femelle_adult_[FRP-BZ0226],43.8520847,3.5325236,777.7,15.31,260.18,-1.66099181861739,-3.35952271516599,-127.594126941488,True
2026-04-04 09:20:13,G3_Madieres_Femelle_adult_[FRP-BZ0226],43.8520595,3.5323296,774.7,16.18,258.87,-2.99222323960756,-6.73163885610229,-131.28044790551,True
2026-04-04 09:20:14,G3_Madieres_Femelle_adult_[FRP-BZ0226],43.8520299,3.5321287,770.1,16.65,257.56,2.64095566690764,-1.50671279411524,-131.240144728872,True
2026-04-04 09:20:15,G3_Madieres_Femelle_adult_[FRP-BZ0226],43.8519985,3.5319171,764.6,17.83,258.21,4.77455550081098,8.43176884216603,-130.087813428277,True
2026-04-04 09:20:16,G3_Madieres_Femelle_adult_[FRP-BZ0226],43.8519661,3.5316911,761.0,18.99,258.21,-3.73082963588742,4.42011461181686,-131.417814125218,True
2026-04-04 09:20:17,G3_Madieres_Femelle_adult_[FRP-BZ0226],43.8519322,3.5314639,759.0,18.44,257.56,-2.04085363977026,4.02069450523478,-134.296558910574,True
2026-04-04 09:20:18,G3_Madieres_Femelle_adult_[FRP-BZ0226],43.8518887,3.531245,757.7,18.16,252.31,1.34665926004757,4.70384174465221,-136.578694213884,True
2026-04-04 09:20:19,G3_Madieres_Femelle_adult_[FRP-BZ0226],43.8518366,3.5310367,757.2,17.42,249.69,0.109517093137603,4.49180442944462,-137.853354660203,True
2026-04-04 09:20:20,G3_Madieres_Femelle_adult_[FRP-BZ0226],43.8517812,3.5308425,757.5,16.38,247.07,0.0798195836349797,1.35411054462306,-138.823774059486,True
2026-04-04 09:20:21,G3_Madieres_Femelle_adult_[FRP-BZ0226],43.851722,3.5306624,757.7,15.6,243.79,-1.27205925254413,2.10345511813629,-143.270592231553,True
2026-04-04 09:20:22,G3_Madieres_Femelle_adult_[FRP-BZ0226],43.8516572,3.5304961,757.7,14.93,239.86,-3.62483365444785,0.0041628451418819,-147.917117877574,True
2026-04-04 09:20:23,G3_Madieres_Femelle_adult_[FRP-BZ0226],43.8515832,3.5303446,757.1,14.57,233.31,-1.66447082854903,1.65554038532072,-155.365742015244,True
2026-04-04 09:20:24,G3_Madieres_Femelle_adult_[FRP-BZ0226],43.8514945,3.5302079,756.1,14.92,224.79,5.57448193811721,2.4079143933074,-158.585884327985,True
2026-04-04 09:20:25,G3_Madieres_Femelle_adult_[FRP-BZ0226],43.851396,3.5300798,755.2,15.1,222.17,7.294409701032,-0.567207969874029,-153.286950770435,True
2026-04-04 09:20:26,G3_Madieres_Femelle_adult_[FRP-BZ0226],43.8513001,3.5299477,753.6,15.05,226.1,2.57614698059424,0.586411874496826,-145.66102678554,True
2026-04-04 09:20:27,G3_Madieres_Femelle_adult_[FRP-BZ0226],43.8512145,3.5298017,751.1,15.21,233.31,2.11261842782737,4.3176422004331,-137.198013048484,True
2026-04-04 09:20:28,G3_Madieres_Femelle_adult_[FRP-BZ0226],43.8511452,3.5296389,748.8,15.27,243.14,-1.86743981834548,8.78697495691952,-131.428194340025,True
2026-04-04 09:20:29,G3_Madieres_Femelle_adult_[FRP-BZ0226],43.851095,3.529465,747.5,14.96,251.66,0.956420874839186,9.37177553330195,-124.939305124862,True
2026-04-04 09:20:30,G3_Madieres_Femelle_adult_[FRP-BZ0226],43.8510651,3.5292912,747.4,14.01,260.18,-2.04461223472082,2.06796652309117,-118.04011755243,True
2026-04-04 09:20:31,G3_Madieres_Femelle_adult_[FRP-BZ0226],43.8510503,3.529124,746.3,13.22,264.77,-1.8342665816,0.458371418350506,-111.37239204185,True
2026-04-04 09:20:32,G3_Madieres_Femelle_adult_[FRP-BZ0226],43.8510477,3.5289546,743.5,13.9,271.32,3.40661686356337,6.67593445548462,-108.843453852263,True
2026-04-04 09:20:33,G3_Madieres_Femelle_adult_[FRP-BZ0226],43.8510622,3.5287774,740.9,14.71,279.18,0.233363852939829,9.94432198290472,-106.752367770131,True
2026-04-04 09:20:34,G3_Madieres_Femelle_adult_[FRP-BZ0226],43.8510904,3.5285991,740.1,14.68,283.77,-1.17376057965589,9.79155648845945,-105.768893687044,True
2026-04-04 09:20:35,G3_Madieres_Femelle_adult_[FRP-BZ0226],43.8511265,3.5284305,740.8,13.8,287.7,-5.91178592783924,6.71289213836185,-104.474592927258,True
2026-04-04 09:20:36,G3_Madieres_Femelle_adult_[FRP-BZ0226],43.8511591,3.5282736,742.2,12.69,284.43,-4.55424908701082,-5.85669716602453,-106.428696059082,True
2026-04-04 09:20:37,G3_Madieres_Femelle_adult_[FRP-BZ0226],43.8511826,3.5281201,740.7,12.54,280.49,-5.8147980502374,-3.39071577130849,-113.758281651061,True
2026-04-04 09:20:38,G3_Madieres_Femelle_adult_[FRP-BZ0226],43.8511918,3.5279538,737.0,14.02,270.66,0.271902102021923,5.24275902519083,-118.109713910868,True
2026-04-04 09:20:39,G3_Madieres_Femelle_adult_[FRP-BZ0226],43.851185,3.52777,734.4,15.3,264.77,3.51315946825613,9.27633592480891,-120.026896473859,True
2026-04-04 09:20:40,G3_Madieres_Femelle_adult_[FRP-BZ0226],43.8511664,3.5275827,733.9,15.14,260.18,7.18657328192271,10.1404263841186,-120.714073467121,True
2026-04-04 09:20:41,G3_Madieres_Femelle_adult_[FRP-BZ0226],43.8511509,3.5274054,735.5,13.89,264.11,2.26255439372641,2.49525905482771,-118.517375425994,True
2026-04-04 09:20:42,G3_Madieres_Femelle_adult_[FRP-BZ0226],43.8511399,3.5272412,736.2,12.84,264.11,1.59673733006577,-4.40679514959495,-117.499178647449,True
2026-04-04 09:20:43,G3_Madieres_Femelle_adult_[FRP-BZ0226],43.8511314,3.5270824,734.5,12.78,266.08,3.08716790922145,-2.57615609365936,-115.996430947443,True
2026-04-04 09:20:44,G3_Madieres_Femelle_adult_[FRP-BZ0226],43.851128,3.5269165,731.6,13.72,269.35,2.12275023574808,1.18241490671056,-115.757721940209,True
2026-04-04 09:20:45,G3_Madieres_Femelle_adult_[FRP-BZ0226],43.8511285,3.5267385,728.4,14.71,270.01,1.46167491577544,4.58270625048156,-117.864607639699,True
2026-04-04 09:20:46,G3_Madieres_Femelle_adult_[FRP-BZ0226],43.8511279,3.5265505,725.8,15.4,268.7,2.43553970727553,6.07380093639652,-119.084683939836,True
2026-04-04 09:20:47,G3_Madieres_Femelle_adult_[FRP-BZ0226],43.8511237,3.5263584,724.0,15.5,267.39,1.58967801580612,8.85017752801995,-120.813950547399,True
2026-04-04 09:20:48,G3_Madieres_Femelle_adult_[FRP-BZ0226],43.8511137,3.5261693,724.0,15.15,264.11,5.41579253020938,8.06704052117004,-121.808476737289,True
2026-04-04 09:20:49,G3_Madieres_Femelle_adult_[FRP-BZ0226],43.8511015,3.5259905,725.0,13.99,264.77,8.05616272999506,7.00226918826266,-121.363630295866,True
2026-04-04 09:20:50,G3_Madieres_Femelle_adult_[FRP-BZ0226],43.8510958,3.5258247,726.3,12.94,268.7,5.50369127826317,1.73487456490161,-119.575042768621,True
2026-04-04 09:20:51,G3_Madieres_Femelle_adult_[FRP-BZ0226],43.8510995,3.5256682,727.0,12.39,273.29,3.86155761912315,-0.762329814426756,-116.237294806515,True
2026-04-04 09:20:52,G3_Madieres_Femelle_adult_[FRP-BZ0226],43.8511093,3.5255142,726.3,12.47,275.91,6.97770585809336,1.67225725836914,-115.951706367644,True
2026-04-04 09:20:53,G3_Madieres_Femelle_adult_[FRP-BZ0226],43.8511248,3.5253547,724.8,13.28,278.53,5.68252159132592,5.17934852486487,-115.750877968113,True
2026-04-04 09:20:54,G3_Madieres_Femelle_adult_[FRP-BZ0226],43.8511472,3.5251856,723.5,14.18,281.15,-1.3171005425907,9.97615691896336,-116.34074605253,True
2026-04-04 09:20:55,G3_Madieres_Femelle_adult_[FRP-BZ0226],43.8511692,3.5250133,724.1,14.02,278.53,-1.94845908674047,12.7995291899414,-122.562516943061,True
2026-04-04 09:20:56,G3_Madieres_Femelle_adult_[FRP-BZ0226],43.8511736,3.5248476,726.7,12.98,266.73,1.03294168637494,11.5470645461782,-137.240991229606,True
2026-04-04 09:20:57,G3_Madieres_Femelle_adult_[FRP-BZ0226],43.8511552,3.5247019,730.0,11.29,254.28,2.07845661872696,6.19968514123363,-158.010305767707,True
2026-04-04 09:20:58,G3_Madieres_Femelle_adult_[FRP-BZ0226],43.8511157,3.5245815,732.1,10.36,238.55,-1.07369258296912,5.98322920748344,-35.6761438011813,True
2026-04-04 09:20:59,G3_Madieres_Femelle_adult_[FRP-BZ0226],43.8510457,3.5244937,733.1,11.05,211.68,-3.08656009462016,18.4969041042499,157.059458570382,True
2026-04-04 09:21:00,G3_Madieres_Femelle_adult_[FRP-BZ0226],43.8509447,3.5244647,734.8,12.47,179.57,-6.83744861088507,23.5378889837918,132.895758727917,True
2026-04-04 09:21:01,G3_Madieres_Femelle_adult_[FRP-BZ0226],43.8508391,3.5245149,736.8,13.1,148.77,-5.69463333513179,24.7479987637089,103.696372327243,True
2026-04-04 09:21:02,G3_Madieres_Femelle_adult_[FRP-BZ0226],43.8507667,3.5246385,738.7,13.44,116.0,-1.66040758261292,28.4654822393573,76.0638381942733,True
2026-04-04 09:21:03,G3_Madieres_Femelle_adult_[FRP-BZ0226],43.8507503,3.5247978,741.6,13.29,85.85,-9.44610221796928,29.2384071135326,48.1934016943706,True
2026-04-04 09:21:04,G3_Madieres_Femelle_adult_[FRP-BZ0226],43.850796,3.5249295,745.1,11.79,47.84,-8.24650619436751,26.9064628469098,16.1081531977176,True
2026-04-04 09:21:05,G3_Madieres_Femelle_adult_[FRP-BZ0226],43.850883,3.524988,747.2,11.11,10.49,1.60773668081424,25.7001765215109,-14.8508169080598,True
2026-04-04 09:21:06,G3_Madieres_Femelle_adult_[FRP-BZ0226],43.8509828,3.5249739,748.2,11.68,344.06,-6.4141835496332,23.3992942077642,-39.2172596527252,True
2026-04-04 09:21:07,G3_Madieres_Femelle_adult_[FRP-BZ0226],43.8510699,3.5248961,748.6,11.97,315.88,-4.96474369983317,24.6920153720477,-58.4277387181598,True
2026-04-04 09:21:08,G3_Madieres_Femelle_adult_[FRP-BZ0226],43.8511177,3.524761,748.8,12.93,283.77,6.04977686874088,27.4437644424321,-76.6556183913468,True
2026-04-04 09:21:09,G3_Madieres_Femelle_adult_[FRP-BZ0226],43.8511233,3.5245981,750.5,13.47,265.42,2.28193495945709,23.1471202128019,-97.2520434070626,True
2026-04-04 09:21:10,G3_Madieres_Femelle_adult_[FRP-BZ0226],43.8510976,3.5244476,753.7,11.93,249.69,-6.95058650810792,15.708624981126,-114.711332870396,True
2026-04-04 09:21:11,G3_Madieres_Femelle_adult_[FRP-BZ0226],43.8510436,3.5243266,755.1,11.27,230.03,-7.63263444785293,16.1939393388574,-139.575088541318,True
2026-04-04 09:21:12,G3_Madieres_Femelle_adult_[FRP-BZ0226],43.8509465,3.5242608,755.0,13.5,192.68,-1.62139221052497,26.5849486246133,-165.858210318449,True
2026-04-04 09:21:13,G3_Madieres_Femelle_adult_[FRP-BZ0226],43.8508223,3.5242725,755.5,14.71,165.81,3.01983112419369,27.1916434275823,84.3318197116902,True
2026-04-04 09:21:14,G3_Madieres_Femelle_adult_[FRP-BZ0226],43.8507065,3.5243516,757.3,14.5,144.83,-1.60892262320928,24.6743173219553,152.56660561383,True
2026-04-04 09:21:15,G3_Madieres_Femelle_adult_[FRP-BZ0226],43.8506209,3.5244733,759.9,13.43,125.83,-5.18253911873633,20.8332185080149,129.789217002194,True
2026-04-04 09:21:16,G3_Madieres_Femelle_adult_[FRP-BZ0226],43.850578,3.5246143,761.5,11.99,102.24,3.7485723938582,21.0079032237593,106.412337172275,True
2026-04-04 09:21:17,G3_Madieres_Femelle_adult_[FRP-BZ0226],43.8505808,3.5247573,762.9,11.62,78.64,-6.98352944728408,20.8916021950727,81.8691910871584,True
2026-04-04 09:21:18,G3_Madieres_Femelle_adult_[FRP-BZ0226],43.8506309,3.5248723,764.6,11.02,44.56,6.48228962118286,24.2703920028599,55.5211164799251,True
2026-04-04 09:21:19,G3_Madieres_Femelle_adult_[FRP-BZ0226],43.8507162,3.5249364,766.8,11.11,17.69,0.225742222742357,19.5879609656578,28.2877114028564,True
2026-04-04 09:21:20,G3_Madieres_Femelle_adult_[FRP-BZ0226],43.8508109,3.5249585,768.9,10.51,3.93,-3.92809337398866,20.1705360271866,7.89352636284175,True
2026-04-04 09:21:21,G3_Madieres_Femelle_adult_[FRP-BZ0226],43.8508984,3.5249334,771.1,9.92,336.86,-2.00674335599156,18.8683313206701,-12.9910666837757,True
2026-04-04 09:21:22,G3_Madieres_Femelle_adult_[FRP-BZ0226],43.850961,3.5248545,773.1,9.68,304.09,1.32762077880462,18.4665877469526,-35.1201756636747,True
2026-04-04 09:21:23,G3_Madieres_Femelle_adult_[FRP-BZ0226],43.850988,3.5247388,774.1,10.23,277.22,12.5283987700274,19.8880323101424,-51.7067522765556,True
2026-04-04 09:21:24,G3_Madieres_Femelle_adult_[FRP-BZ0226],43.8509821,3.5246039,774.6,11.46,259.52,-0.524560050659192,17.749315837012,-68.8319270186091,True
2026-04-04 09:21:25,G3_Madieres_Femelle_adult_[FRP-BZ0226],43.8509526,3.5244631,775.8,12.05,249.69,-6.39449033774507,17.1810903427414,-84.9367478944868,True
2026-04-04 09:21:26,G3_Madieres_Femelle_adult_[FRP-BZ0226],43.8508924,3.5243385,777.5,12.44,227.41,-1.03093623925527,17.52438506023,-104.528304364153,True
2026-04-04 09:21:27,G3_Madieres_Femelle_adult_[FRP-BZ0226],43.8507999,3.5242543,778.6,12.58,203.82,5.98540793245636,20.5025507851609,-124.678427297793,True
2026-04-04 09:21:28,G3_Madieres_Femelle_adult_[FRP-BZ0226],43.8506824,3.5242294,779.7,14.09,178.91,-2.35907622170662,20.3998006289382,-145.967009480529,True
2026-04-04 09:21:29,G3_Madieres_Femelle_adult_[FRP-BZ0226],43.850557,3.5242616,781.4,14.48,162.53,-3.26843600787861,18.5684338339613,-134.741074587891,True
2026-04-04 09:21:30,G3_Madieres_Femelle_adult_[FRP-BZ0226],43.8504459,3.5243467,782.5,14.21,142.21,3.42343824826749,20.3559436396948,166.946658211764,True
2026-04-04 09:21:31,G3_Madieres_Femelle_adult_[FRP-BZ0226],43.8503635,3.5244754,782.7,13.85,123.21,-3.87821307632334,21.0329022036636,145.011789678338,True
2026-04-04 09:21:32,G3_Madieres_Femelle_adult_[FRP-BZ0226],43.8503194,3.5246292,783.4,13.32,102.89,1.67127121647909,20.5739867641148,123.392207962658,True
2026-04-04 09:21:33,G3_Madieres_Femelle_adult_[FRP-BZ0226],43.8503213,3.524779,784.5,11.68,77.99,-0.980648723845461,20.9144005853422,103.785738517735,True
2026-04-04 09:21:34,G3_Madieres_Femelle_adult_[FRP-BZ0226],43.8503648,3.5248962,785.9,10.37,51.12,6.50446160723952,21.135781853833,85.2533262256754,True
2026-04-04 09:21:35,G3_Madieres_Femelle_adult_[FRP-BZ0226],43.8504378,3.5249656,787.7,10.01,22.94,5.4742316288254,20.1526906421736,66.2352446768705,True
2026-04-04 09:21:36,G3_Madieres_Femelle_adult_[FRP-BZ0226],43.8505219,3.5249879,789.8,9.48,1.97,5.91350061732916,16.4380336186031,47.0857968857629,True
2026-04-04 09:21:37,G3_Madieres_Femelle_adult_[FRP-BZ0226],43.850603,3.5249723,791.8,9.02,344.72,0.139188829215094,15.6123343885777,26.929366603185,True
2026-04-04 09:21:38,G3_Madieres_Femelle_adult_[FRP-BZ0226],43.8506726,3.5249224,793.7,8.75,323.75,-7.49536746083213,14.7969712872922,4.03409037735612,True
2026-04-04 09:21:39,G3_Madieres_Femelle_adult_[FRP-BZ0226],43.8507169,3.5248388,795.0,8.51,294.26,-3.23728056751329,15.5907950586073,-23.6830434068467,True
2026-04-04 09:21:40,G3_Madieres_Femelle_adult_[FRP-BZ0226],43.8507167,3.5247286,794.8,9.79,256.25,1.07431201978534,23.1668849574788,-47.2224117700871,True
2026-04-04 09:21:41,G3_Madieres_Femelle_adult_[FRP-BZ0226],43.850663,3.5246113,794.2,12.56,227.41,1.72663893378525,26.2147103850114,-67.8677321225552,True
2026-04-04 09:21:42,G3_Madieres_Femelle_adult_[FRP-BZ0226],43.8505656,3.524515,795.5,14.11,207.75,-10.983867897121,25.5648049531826,-90.3389289548384,True
2026-04-04 09:21:43,G3_Madieres_Femelle_adult_[FRP-BZ0226],43.8504469,3.5244804,799.0,13.74,180.22,1.163393230411,25.582539960186,-116.894949385208,True
2026-04-04 09:21:44,G3_Madieres_Femelle_adult_[FRP-BZ0226],43.8503339,3.5245261,802.1,13.33,151.39,2.00721834520968,22.8533603011624,-146.071298976894,True
2026-04-04 09:21:45,G3_Madieres_Femelle_adult_[FRP-BZ0226],43.8502432,3.5246297,803.8,13.2,132.38,-7.22702474560921,23.9104139182412,-32.051376440241,True
2026-04-04 09:21:46,G3_Madieres_Femelle_adult_[FRP-BZ0226],43.8501888,3.5247707,804.8,13.08,107.48,-4.88387804380832,26.3356961660871,158.450201203468,True
2026-04-04 09:21:47,G3_Madieres_Femelle_adult_[FRP-BZ0226],43.8501902,3.5249186,806.3,11.94,75.37,-3.79510167593089,28.1348177221687,133.32822250532,True
2026-04-04 09:21:48,G3_Madieres_Femelle_adult_[FRP-BZ0226],43.850245,3.5250221,808.6,10.21,36.7,-0.580256376402126,24.8030075078753,105.457051085863,True
2026-04-04 09:21:49,G3_Madieres_Femelle_adult_[FRP-BZ0226],43.850323,3.5250572,810.8,9.03,3.93,4.2767450373588,22.3753924018547,81.3851024975299,True
2026-04-04 09:21:50,G3_Madieres_Femelle_adult_[FRP-BZ0226],43.8503994,3.5250362,812.5,8.77,338.17,-1.04364027177189,18.9608588849674,62.3888632262576,True
2026-04-04 09:21:51,G3_Madieres_Femelle_adult_[FRP-BZ0226],43.8504609,3.5249711,814.0,8.87,311.95,-0.689369127167385,19.3812008716841,43.1807135290215,True
2026-04-04 09:21:52,G3_Madieres_Femelle_adult_[FRP-BZ0226],43.8504934,3.5248703,815.0,9.35,282.46,5.39224570045888,18.9799909171119,25.1029819916007,True
2026-04-04 09:21:53,G3_Madieres_Femelle_adult_[FRP-BZ0226],43.8504936,3.5247498,815.6,10.12,262.14,9.05955147693016,18.254505838277,9.62103536827778,True
2026-04-04 09:21:54,G3_Madieres_Femelle_adult_[FRP-BZ0226],43.8504666,3.5246223,816.3,11.17,248.38,-0.902519604068547,18.6370623351373,-5.18496283684879,True
2026-04-04 09:21:55,G3_Madieres_Femelle_adult_[FRP-BZ0226],43.8504182,3.5244953,818.0,11.87,237.9,0.434841850608849,18.9286835616491,-19.2502739901236,True
2026-04-04 09:21:56,G3_Madieres_Femelle_adult_[FRP-BZ0226],43.850346,3.524385,820.7,12.24,220.86,-7.87806751933225,12.8562281457574,-38.3376693094343,True
2026-04-04 09:21:57,G3_Madieres_Femelle_adult_[FRP-BZ0226],43.8502531,3.5243099,822.3,11.99,202.51,-11.8106721892523,10.590584095165,-72.589246509968,True
2026-04-04 09:21:58,G3_Madieres_Femelle_adult_[FRP-BZ0226],43.850148,3.5242901,820.8,12.07,176.95,6.54948582857242,19.4548047044044,-97.4201149687162,True
2026-04-04 09:21:59,G3_Madieres_Femelle_adult_[FRP-BZ0226],43.8500351,3.5243504,817.8,14.97,148.77,-0.0722084081511802,25.3908837907292,-116.11323005228,True
2026-04-04 09:22:00,G3_Madieres_Femelle_adult_[FRP-BZ0226],43.849926,3.5244796,817.1,16.86,133.69,-0.374578425079473,21.939345738183,-130.113034804832,True
2026-04-04 09:22:01,G3_Madieres_Femelle_adult_[FRP-BZ0226],43.8498482,3.5246431,818.3,15.33,115.34,2.88300636826675,18.9828966519063,-147.531555341631,True
2026-04-04 09:22:02,G3_Madieres_Femelle_adult_[FRP-BZ0226],43.8498107,3.5248143,819.5,13.96,100.27,3.59725406722597,18.602161081907,-164.781529146641,True
2026-04-04 09:22:03,G3_Madieres_Femelle_adult_[FRP-BZ0226],43.8498099,3.5249758,821.4,12.53,83.23,-3.84606613038688,14.8525126580606,49.5894998875395,True
2026-04-04 09:22:04,G3_Madieres_Femelle_adult_[FRP-BZ0226],43.8498417,3.5251086,822.5,10.73,61.6,-1.42949210701462,18.9562618857455,154.788331675465,True
2026-04-04 09:22:05,G3_Madieres_Femelle_adult_[FRP-BZ0226],43.8499067,3.5251857,822.5,9.62,24.25,9.96658312844508,23.4764835670971,137.568836628468,True
2026-04-04 09:22:06,G3_Madieres_Femelle_adult_[FRP-BZ0226],43.8499916,3.5252016,823.5,9.86,356.52,2.86812681292095,20.7998733495766,118.995122307556,True
2026-04-04 09:22:07,G3_Madieres_Femelle_adult_[FRP-BZ0226],43.8500735,3.5251682,825.3,9.56,334.23,3.9328604809021,14.8717481111383,104.147781790864,True
2026-04-04 09:22:08,G3_Madieres_Femelle_adult_[FRP-BZ0226],43.8501413,3.5250949,826.5,9.81,313.92,7.65330574023945,11.2633379153598,92.3087926158918,True
2026-04-04 09:22:09,G3_Madieres_Femelle_adult_[FRP-BZ0226],43.8501965,3.5249949,826.2,10.37,304.09,10.4944179954774,14.6610692800648,88.5435032304762,True
2026-04-04 09:22:10,G3_Madieres_Femelle_adult_[FRP-BZ0226],43.8502446,3.5248762,826.1,11.33,296.22,16.2486446436605,17.3388066428014,92.0071853793363,True
2026-04-04 09:22:11,G3_Madieres_Femelle_adult_[FRP-BZ0226],43.8502944,3.5247552,827.8,11.07,301.47,10.254447584145,12.3815546204216,98.5274495555378,True
2026-04-04 09:22:12,G3_Madieres_Femelle_adult_[FRP-BZ0226],43.8503522,3.5246526,829.7,10.09,312.61,-1.62657953595401,7.70385728632046,104.908670933138,True
2026-04-04 09:22:13,G3_Madieres_Femelle_adult_[FRP-BZ0226],43.8504165,3.5245693,830.3,9.63,319.82,-13.2699280561747,1.82747217763984,83.1258765270186,True
2026-04-04 09:22:14,G3_Madieres_Femelle_adult_[FRP-BZ0226],43.8504717,3.524477,829.2,9.75,302.78,-5.46389526380861,11.9979803235365,55.7473438738931,True
2026-04-04 09:22:15,G3_Madieres_Femelle_adult_[FRP-BZ0226],43.8504902,3.5243524,828.3,11.2,269.35,-4.24690081069304,19.8066076524485,27.836484783602,True
2026-04-04 09:22:16,G3_Madieres_Femelle_adult_[FRP-BZ0226],43.8504506,3.5242215,828.3,12.37,233.96,-4.01896701782686,19.0383991325759,-5.71780056468877,True
2026-04-04 09:22:17,G3_Madieres_Femelle_adult_[FRP-BZ0226],43.8503646,3.5241249,827.4,12.57,209.06,-0.989738940972931,20.0214266918,-31.7712005013776,True
2026-04-04 09:22:18,G3_Madieres_Femelle_adult_[FRP-BZ0226],43.8502504,3.5240866,825.9,13.8,183.5,4.12205077378824,21.7820583023646,-48.7796898033249,True
2026-04-04 09:22:19,G3_Madieres_Femelle_adult_[FRP-BZ0226],43.8501238,3.5241159,824.4,14.95,161.87,3.97195052641388,22.703368604071,-66.3694598617016,True
2026-04-04 09:22:20,G3_Madieres_Femelle_adult_[FRP-BZ0226],43.8500004,3.5241936,824.3,15.23,150.73,6.87752603424058,19.8377064737609,-78.0705217828587,True
2026-04-04 09:22:21,G3_Madieres_Femelle_adult_[FRP-BZ0226],43.8498958,3.5243027,825.5,14.31,136.97,10.2815254470112,11.825625929885,-89.1676309271117,True
2026-04-04 09:22:22,G3_Madieres_Femelle_adult_[FRP-BZ0226],43.8498095,3.5244286,825.9,13.77,130.42,8.47401688462249,10.4052882722269,-94.827232644593,True
2026-04-04 09:22:23,G3_Madieres_Femelle_adult_[FRP-BZ0226],43.8497324,3.5245718,825.2,14.81,123.21,0.2600186584877,16.6285363045093,-106.030055541857,True
2026-04-04 09:22:24,G3_Madieres_Femelle_adult_[FRP-BZ0226],43.84967,3.5247339,825.5,14.84,114.03,1.76549329595604,18.1712509176227,-114.766612491311,True
2026-04-04 09:22:25,G3_Madieres_Femelle_adult_[FRP-BZ0226],43.8496325,3.5249006,827.2,13.66,102.24,6.4076678743127,14.6136798999601,-124.872229782527,True
2026-04-04 09:22:26,G3_Madieres_Femelle_adult_[FRP-BZ0226],43.849619,3.5250566,829.3,12.06,92.41,7.18946433130114,8.03400907662,-130.326346869359,True
2026-04-04 09:22:27,G3_Madieres_Femelle_adult_[FRP-BZ0226],43.8496194,3.5252015,830.0,11.43,87.16,6.66786868557465,9.20049682831928,-139.084489994973,True
2026-04-04 09:22:28,G3_Madieres_Femelle_adult_[FRP-BZ0226],43.8496353,3.5253449,830.1,11.89,77.33,17.6571590171716,8.79198802034788,-129.020760020858,True
2026-04-04 09:22:29,G3_Madieres_Femelle_adult_[FRP-BZ0226],43.8496511,3.5254941,830.0,12.31,84.54,18.5212111201311,10.9317781687455,-106.766431244455,True
2026-04-04 09:22:30,G3_Madieres_Femelle_adult_[FRP-BZ0226],43.849637,3.5256499,829.7,13.15,104.86,13.0538962552645,18.6149523249342,-82.2042471184116,True
2026-04-04 09:22:31,G3_Madieres_Femelle_adult_[FRP-BZ0226],43.8495765,3.5257911,829.2,13.77,129.76,8.53896007784512,23.7383761342436,-59.6880757102383,True
2026-04-04 09:22:32,G3_Madieres_Femelle_adult_[FRP-BZ0226],43.8494756,3.5258833,829.0,13.81,156.63,17.6891925089375,25.1461412639201,-33.5939571234634,True
2026-04-04 09:22:33,G3_Madieres_Femelle_adult_[FRP-BZ0226],43.8493586,3.5258955,828.5,13.19,188.09,2.33374846477305,25.8480677292614,-8.46839470521983,True
2026-04-04 09:22:34,G3_Madieres_Femelle_adult_[FRP-BZ0226],43.8492525,3.5258327,827.1,12.98,212.34,-4.99354621910895,22.9838930432326,13.8602035611094,True
2026-04-04 09:22:35,G3_Madieres_Femelle_adult_[FRP-BZ0226],43.8491638,3.5257301,825.5,12.82,224.13,5.18596491632583,21.1918403836767,30.8395914692583,True
2026-04-04 09:22:36,G3_Madieres_Femelle_adult_[FRP-BZ0226],43.8490985,3.5256066,825.3,12.12,239.86,6.17374735932278,19.1229039005237,45.5200465459051,True
2026-04-04 09:22:37,G3_Madieres_Femelle_adult_[FRP-BZ0226],43.8490654,3.5254759,826.0,10.7,258.21,6.36292777700525,16.419494342841,58.7433275691166,True
2026-04-04 09:22:38,G3_Madieres_Femelle_adult_[FRP-BZ0226],43.8490648,3.5253524,826.6,9.64,277.22,0.683166899523266,16.5976634339425,71.3694801289998,True
2026-04-04 09:22:39,G3_Madieres_Femelle_adult_[FRP-BZ0226],43.8490918,3.5252433,827.2,9.21,296.22,0.274976682162251,16.9464469348759,85.2700192450949,True
2026-04-04 09:22:40,G3_Madieres_Femelle_adult_[FRP-BZ0226],43.8491389,3.525155,828.4,8.69,313.26,0.847075379947047,13.5271646436327,95.4883793505899,True
2026-04-04 09:22:41,G3_Madieres_Femelle_adult_[FRP-BZ0226],43.8491971,3.5250903,829.8,8.12,326.37,-10.0271799197021,7.6537854058411,92.1858640119777,True
2026-04-04 09:22:42,G3_Madieres_Femelle_adult_[FRP-BZ0226],43.8492534,3.5250308,830.6,7.74,322.44,-8.27845849854863,6.57874574135622,74.8446871162484,True
2026-04-04 09:22:43,G3_Madieres_Femelle_adult_[FRP-BZ0226],43.8492917,3.5249545,831.1,7.57,307.36,-8.90046763116035,7.71725504095672,49.0099779075301,True
2026-04-04 09:22:44,G3_Madieres_Femelle_adult_[FRP-BZ0226],43.8492936,3.5248556,830.8,8.81,258.21,-5.86857286317629,13.250190112477,19.6988109420515,True
2026-04-04 09:22:45,G3_Madieres_Femelle_adult_[FRP-BZ0226],43.8492403,3.5247486,829.4,12.23,224.13,0.176925135186536,22.6111226186522,-5.42949480113135,True
2026-04-04 09:22:46,G3_Madieres_Femelle_adult_[FRP-BZ0226],43.8491338,3.524666,828.6,14.95,200.54,-0.247301214374777,23.1271167951039,-22.8282304253519,True
2026-04-04 09:22:47,G3_Madieres_Femelle_adult_[FRP-BZ0226],43.8489978,3.5246344,828.4,15.99,182.19,6.03094566674935,16.1949751373838,-33.5794005578632,True
2026-04-04 09:22:48,G3_Madieres_Femelle_adult_[FRP-BZ0226],43.8488545,3.5246512,827.6,16.15,170.39,12.979441342789,7.92678553783917,-41.9588664780906,True
2026-04-04 09:22:49,G3_Madieres_Femelle_adult_[FRP-BZ0226],43.8487072,3.5246921,824.7,17.02,167.12,7.0687533392428,4.8756547072932,-43.7627718577848,True
2026-04-04 09:22:50,G3_Madieres_Femelle_adult_[FRP-BZ0226],43.8485502,3.5247434,820.5,18.53,165.81,2.18566525579238,8.59677321796543,-43.5945367383794,True
2026-04-04 09:22:51,G3_Madieres_Femelle_adult_[FRP-BZ0226],43.8483813,3.5248049,816.8,19.96,164.5,5.92260111974711,10.7722032790658,-40.7264927234616,True
2026-04-04 09:22:52,G3_Madieres_Femelle_adult_[FRP-BZ0226],43.848205,3.5248671,814.9,20.38,165.81,4.86631953889822,7.66490063744242,-38.7447309580381,True
2026-04-04 09:22:53,G3_Madieres_Femelle_adult_[FRP-BZ0226],43.848028,3.5249159,813.8,19.86,169.74,-1.82203377688146,6.95674974186728,-35.6212405902091,True
2026-04-04 09:22:54,G3_Madieres_Femelle_adult_[FRP-BZ0226],43.8478535,3.5249542,813.2,19.48,171.05,-3.30659267991955,3.51495638135498,-34.2317109924469,True
2026-04-04 09:22:55,G3_Madieres_Femelle_adult_[FRP-BZ0226],43.8476826,3.524992,812.2,19.05,170.39,-0.757112816742906,3.40382201145293,-33.1782211344822,True
2026-04-04 09:22:56,G3_Madieres_Femelle_adult_[FRP-BZ0226],43.8475128,3.5250292,811.2,19.14,171.05,0.655222878090878,4.70935391592416,-29.1028521345689,True
2026-04-04 09:22:57,G3_Madieres_Femelle_adult_[FRP-BZ0226],43.8473439,3.5250589,810.5,18.77,173.67,0.2125176197603,4.42107228739548,-24.2108009040448,True
2026-04-04 09:22:58,G3_Madieres_Femelle_adult_[FRP-BZ0226],43.8471776,3.5250751,810.0,18.4,176.95,-4.46885852190945,7.16599260636689,-21.2730024914766,True
2026-04-04 09:22:59,G3_Madieres_Femelle_adult_[FRP-BZ0226],43.8470141,3.5250821,810.3,18.06,178.26,0.313008876334295,10.1990939953589,-16.3575517034285,True
2026-04-04 09:23:00,G3_Madieres_Femelle_adult_[FRP-BZ0226],43.8468571,3.5250841,811.5,17.08,179.57,3.15131146504659,8.20190939238641,-12.3609454000493,True
2026-04-04 09:23:01,G3_Madieres_Femelle_adult_[FRP-BZ0226],43.8467113,3.5250764,813.1,15.65,183.5,-1.37983450104668,3.35524054830031,-12.21778620157,True
2026-04-04 09:23:02,G3_Madieres_Femelle_adult_[FRP-BZ0226],43.8465723,3.5250625,813.6,15.36,184.16,-0.39348533171539,1.77478681670884,-16.7442639600031,True
2026-04-04 09:23:03,G3_Madieres_Femelle_adult_[FRP-BZ0226],43.8464322,3.5250514,812.9,15.7,182.19,2.36802698394487,6.50333898882004,-24.4562314148931,True
2026-04-04 09:23:04,G3_Madieres_Femelle_adult_[FRP-BZ0226],43.8462894,3.5250444,812.6,16.0,181.53,-1.18851372818213,7.25663868231679,-25.5704330738458,True
2026-04-04 09:23:05,G3_Madieres_Femelle_adult_[FRP-BZ0226],43.8461455,3.5250486,813.1,16.03,176.29,3.37359942854654,5.47358368000182,-25.5842670787484,True
2026-04-04 09:23:06,G3_Madieres_Femelle_adult_[FRP-BZ0226],43.8460027,3.5250624,813.5,15.83,174.98,3.75228747478558,5.30400778659812,-23.6665958135788,True
2026-04-04 09:23:07,G3_Madieres_Femelle_adult_[FRP-BZ0226],43.845861,3.525072,813.6,15.75,178.26,2.43329155565235,2.71907113064991,-21.6574838410185,True
2026-04-04 09:23:08,G3_Madieres_Femelle_adult_[FRP-BZ0226],43.8457183,3.5250757,813.1,15.95,178.91,1.30232444546225,5.80482913744451,-18.7186363252794,True
2026-04-04 09:23:09,G3_Madieres_Femelle_adult_[FRP-BZ0226],43.8455721,3.5250723,812.1,16.43,181.53,3.09093571252389,7.28208126110765,-14.7174645675907,True
2026-04-04 09:23:10,G3_Madieres_Femelle_adult_[FRP-BZ0226],43.8454235,3.5250574,811.1,16.65,184.81,1.07795334830429,6.50269648446103,-12.1147239266222,True
2026-04-04 09:23:11,G3_Madieres_Femelle_adult_[FRP-BZ0226],43.8452752,3.5250301,810.4,16.56,188.74,3.08938490449516,6.51631006333326,-11.1129030559934,True
2026-04-04 09:23:12,G3_Madieres_Femelle_adult_[FRP-BZ0226],43.8451278,3.5249963,809.7,16.63,189.4,-1.80437564831912,5.0548149142497,-14.1254407924716,True
2026-04-04 09:23:13,G3_Madieres_Femelle_adult_[FRP-BZ0226],43.8449793,3.524963,808.9,16.77,188.74,0.848607099482882,7.85667984761312,-19.7105105979897,True
2026-04-04 09:23:14,G3_Madieres_Femelle_adult_[FRP-BZ0226],43.8448269,3.5249396,808.2,17.24,184.16,5.65593303268051,9.47594808474904,-24.2217814480759,True
2026-04-04 09:23:15,G3_Madieres_Femelle_adult_[FRP-BZ0226],43.8446725,3.5249283,808.8,17.19,181.53,1.10059063190553,-2.14989277634206,-25.5150492599261,True
2026-04-04 09:23:16,G3_Madieres_Femelle_adult_[FRP-BZ0226],43.8445209,3.5249252,808.4,16.63,179.57,-1.03522557006162,-1.43670570625198,-30.6699805774105,True
2026-04-04 09:23:17,G3_Madieres_Femelle_adult_[FRP-BZ0226],43.8443673,3.5249327,806.0,17.37,176.29,-0.0665981542422679,1.80046697810499,-36.6568742437965,True
2026-04-04 09:23:18,G3_Madieres_Femelle_adult_[FRP-BZ0226],43.8442063,3.5249552,802.2,18.36,172.36,3.41746771464658,12.2589159950964,-37.0067028682451,True
2026-04-04 09:23:19,G3_Madieres_Femelle_adult_[FRP-BZ0226],43.8440355,3.5249969,799.9,19.92,167.77,2.1473996745438,13.4325516085184,-40.142890935422,True
2026-04-04 09:23:20,G3_Madieres_Femelle_adult_[FRP-BZ0226],43.8438648,3.5250557,800.7,19.37,163.84,6.35321187603767,2.70837851153347,-43.296187909041,True
2026-04-04 09:23:21,G3_Madieres_Femelle_adult_[FRP-BZ0226],43.8437044,3.5251216,801.7,18.07,162.53,5.7000034035103,-0.49132431062224,-42.6369116669561,True
2026-04-04 09:23:22,G3_Madieres_Femelle_adult_[FRP-BZ0226],43.8435486,3.5251908,800.4,18.2,161.22,2.44391198696614,7.7828019979414,-46.4295927152241,True
2026-04-04 09:23:23,G3_Madieres_Femelle_adult_[FRP-BZ0226],43.8433909,3.5252628,799.2,18.61,161.22,2.64890156605132,9.01479494474895,-51.073032615851,True
2026-04-04 09:23:24,G3_Madieres_Femelle_adult_[FRP-BZ0226],43.8432357,3.5253376,799.1,18.05,159.91,0.590167152460586,7.60273423581434,-54.1832808213968,True
2026-04-04 09:23:25,G3_Madieres_Femelle_adult_[FRP-BZ0226],43.8430895,3.5254204,799.4,17.25,155.98,1.94632257005733,5.12093483648515,-58.629658491907,True
2026-04-04 09:23:26,G3_Madieres_Femelle_adult_[FRP-BZ0226],43.8429537,3.5255129,799.3,16.54,151.39,1.86866700754386,5.70150129498358,-66.416918626146,True
2026-04-04 09:23:27,G3_Madieres_Femelle_adult_[FRP-BZ0226],43.8428275,3.525617,798.8,16.21,146.8,3.19391630540603,5.16309534610044,-73.6119351587016,True
2026-04-04 09:23:28,G3_Madieres_Femelle_adult_[FRP-BZ0226],43.8427111,3.5257353,797.9,15.99,140.9,6.27736380569039,4.11718265536883,-77.578022754332,True
2026-04-04 09:23:29,G3_Madieres_Femelle_adult_[FRP-BZ0226],43.8426022,3.5258658,796.5,16.03,136.97,8.95745712153076,4.24791826597975,-74.2042745905706,True
2026-04-04 09:23:30,G3_Madieres_Femelle_adult_[FRP-BZ0226],43.842493,3.5259999,794.8,16.39,138.28,6.45144122219344,7.10125765715523,-70.0288426045148,True
2026-04-04 09:23:31,G3_Madieres_Femelle_adult_[FRP-BZ0226],43.842377,3.5261301,792.6,16.71,141.56,0.36310966420805,11.9471842734931,-73.0868050334634,True
2026-04-04 09:23:32,G3_Madieres_Femelle_adult_[FRP-BZ0226],43.8422594,3.526261,791.6,16.82,140.25,3.48669882032609,15.8975972374451,-74.8835201765064,True
2026-04-04 09:23:33,G3_Madieres_Femelle_adult_[FRP-BZ0226],43.8421512,3.526397,793.4,15.93,135.66,1.59024049261133,14.5969661223067,-77.9656118833266,True
2026-04-04 09:23:34,G3_Madieres_Femelle_adult_[FRP-BZ0226],43.8420624,3.5265372,796.8,14.44,127.14,2.03456995954263,8.49628782537386,-89.1175182712097,True
2026-04-04 09:23:35,G3_Madieres_Femelle_adult_[FRP-BZ0226],43.8419974,3.5266809,799.7,13.21,117.31,4.96531556286296,5.60318269104037,-103.809461364961,True
2026-04-04 09:23:36,G3_Madieres_Femelle_adult_[FRP-BZ0226],43.8419586,3.5268344,801.0,13.18,103.55,22.7150120649726,7.882940041315,-96.989109476877,True
2026-04-04 09:23:37,G3_Madieres_Femelle_adult_[FRP-BZ0226],43.8419278,3.5269964,801.8,13.69,104.86,19.8543767593478,13.1856596866425,-74.4044185203835,True
2026-04-04 09:23:38,G3_Madieres_Femelle_adult_[FRP-BZ0226],43.841875,3.5271443,802.8,13.27,123.21,17.8805701241255,17.6915165268287,-48.7076175237763,True
2026-04-04 09:23:39,G3_Madieres_Femelle_adult_[FRP-BZ0226],43.8417929,3.5272516,803.8,12.45,145.49,12.4791125135004,21.4724720620754,-20.6207352104029,True
2026-04-04 09:23:40,G3_Madieres_Femelle_adult_[FRP-BZ0226],43.8416962,3.5272952,803.6,11.05,173.02,10.9014038559191,23.0302851765432,1.70052414558876,True
2026-04-04 09:23:41,G3_Madieres_Femelle_adult_[FRP-BZ0226],43.8416079,3.5272694,802.3,9.88,205.13,-0.861374353576561,23.8315698849988,17.3573469490729,True
2026-04-04 09:23:42,G3_Madieres_Femelle_adult_[FRP-BZ0226],43.8415372,3.5271888,802.0,10.74,228.07,5.82422914501466,24.8313878262178,31.2617490959774,True
2026-04-04 09:23:43,G3_Madieres_Femelle_adult_[FRP-BZ0226],43.8414919,3.5270801,803.5,9.93,247.73,7.24622479816956,19.7544263302267,46.4865381731177,True
2026-04-04 09:23:44,G3_Madieres_Femelle_adult_[FRP-BZ0226],43.8414767,3.526971,805.5,8.44,267.39,6.86848977811741,15.8599644453409,65.6807288535364,True
2026-04-04 09:23:45,G3_Madieres_Femelle_adult_[FRP-BZ0226],43.8414895,3.5268743,807.0,7.78,279.84,5.2812649364581,16.9941091421834,86.0736254727615,True
2026-04-04 09:23:46,G3_Madieres_Femelle_adult_[FRP-BZ0226],43.8415314,3.5267994,807.9,7.9,305.4,10.3670448180565,19.5414844357531,110.793301314326,True
2026-04-04 09:23:47,G3_Madieres_Femelle_adult_[FRP-BZ0226],43.8415991,3.5267593,808.7,8.72,347.34,5.54446878003094,21.9749405831036,131.510007274335,True
2026-04-04 09:23:48,G3_Madieres_Femelle_adult_[FRP-BZ0226],43.8416832,3.526771,809.9,10.31,15.73,10.6197030324931,21.448552878371,157.876674041363,True
2026-04-04 09:23:49,G3_Madieres_Femelle_adult_[FRP-BZ0226],43.8417674,3.5268355,811.2,11.27,36.7,14.7758539542721,20.7291155960889,-68.2300227330115,True
2026-04-04 09:23:50,G3_Madieres_Femelle_adult_[FRP-BZ0226],43.8418307,3.5269504,811.8,12.28,61.6,11.8107479483529,23.052674615712,-151.959525774002,True
2026-04-04 09:23:51,G3_Madieres_Femelle_adult_[FRP-BZ0226],43.8418555,3.5271057,811.9,13.55,86.51,12.8160595118354,26.9455269336017,-128.16363369334,True
2026-04-04 09:23:52,G3_Madieres_Femelle_adult_[FRP-BZ0226],43.8418249,3.5272675,812.5,14.06,115.34,13.4648920897029,25.50928728541,-100.58271156142,True
2026-04-04 09:23:53,G3_Madieres_Femelle_adult_[FRP-BZ0226],43.8417468,3.5273956,813.1,13.56,139.59,8.09058105518428,24.6874926953496,-77.9266738557936,True
2026-04-04 09:23:54,G3_Madieres_Femelle_adult_[FRP-BZ0226],43.8416439,3.5274658,813.5,12.59,163.18,2.50271330532855,23.7789959586855,-58.9411148169079,True
2026-04-04 09:23:55,G3_Madieres_Femelle_adult_[FRP-BZ0226],43.8415376,3.5274789,814.5,11.61,182.85,6.44437969574898,20.3872860649439,-41.1419537608179,True
2026-04-04 09:23:56,G3_Madieres_Femelle_adult_[FRP-BZ0226],43.841444,3.527449,815.9,10.21,200.54,2.9604257016255,16.6530945712351,-25.352167165187,True
2026-04-04 09:23:57,G3_Madieres_Femelle_adult_[FRP-BZ0226],43.8413718,3.5273858,816.7,9.23,220.86,-2.8496970358234,13.7863631992477,-13.8855386612755,True
2026-04-04 09:23:58,G3_Madieres_Femelle_adult_[FRP-BZ0226],43.8413171,3.5273009,816.9,9.14,232.65,-1.82549683725785,14.6331810487665,-9.75943191094974,True
2026-04-04 09:23:59,G3_Madieres_Femelle_adult_[FRP-BZ0226],43.8412669,3.5272051,817.3,9.73,234.62,-4.51299265238386,13.0652570748068,-13.4450932798437,True
2026-04-04 09:24:00,G3_Madieres_Femelle_adult_[FRP-BZ0226],43.8412176,3.5271087,818.5,9.3,234.62,-6.02376131868351,12.3781789167162,-20.1872276523444,True
2026-04-04 09:24:01,G3_Madieres_Femelle_adult_[FRP-BZ0226],43.8411573,3.5270259,820.4,9.71,218.23,-6.41381120674373,10.3561160280925,-35.1165247471761,True
2026-04-04 09:24:02,G3_Madieres_Femelle_adult_[FRP-BZ0226],43.8410746,3.52697,822.3,10.85,198.57,-0.242277252253812,11.0558757331911,-57.0152431282387,True
2026-04-04 09:24:03,G3_Madieres_Femelle_adult_[FRP-BZ0226],43.840971,3.5269512,823.3,12.33,180.88,-3.37963096262471,13.8798197306712,-83.542466182823,True
2026-04-04 09:24:04,G3_Madieres_Femelle_adult_[FRP-BZ0226],43.8408553,3.5269815,823.2,13.83,161.87,2.4007233050924,19.3184784803213,-105.832048776299,True
2026-04-04 09:24:05,G3_Madieres_Femelle_adult_[FRP-BZ0226],43.8407424,3.5270726,823.3,15.32,142.21,-2.28324888166522,21.7528339672236,-126.377621217337,True
2026-04-04 09:24:06,G3_Madieres_Femelle_adult_[FRP-BZ0226],43.8406526,3.5272149,824.9,15.43,123.86,-7.72547846531074,21.3855864226236,-150.85427086375,True
2026-04-04 09:24:07,G3_Madieres_Femelle_adult_[FRP-BZ0226],43.8406074,3.5273834,826.9,14.27,100.93,-3.242076821214,22.4587411708174,-15.7283372962176,True
2026-04-04 09:24:08,G3_Madieres_Femelle_adult_[FRP-BZ0226],43.8406174,3.5275449,827.9,12.83,72.74,-0.735821220211082,23.823064549234,156.946405567298,True
2026-04-04 09:24:09,G3_Madieres_Femelle_adult_[FRP-BZ0226],43.8406723,3.5276669,828.4,11.25,45.88,-0.214948566866295,22.5589866168251,133.978779136169,True
2026-04-04 09:24:10,G3_Madieres_Femelle_adult_[FRP-BZ0226],43.8407543,3.5277253,828.7,10.32,13.11,6.1757897604523,23.3737650943832,113.043528433093,True
2026-04-04 09:24:11,G3_Madieres_Femelle_adult_[FRP-BZ0226],43.840844,3.527721,829.3,10.19,347.34,4.05506891845407,20.9682091349273,95.8442205229643,True
2026-04-04 09:24:12,G3_Madieres_Femelle_adult_[FRP-BZ0226],43.8409222,3.5276716,830.0,9.4,326.37,7.85433715757654,19.7578177444273,77.7899209523605,True
2026-04-04 09:24:13,G3_Madieres_Femelle_adult_[FRP-BZ0226],43.8409798,3.5275946,831.3,8.72,308.02,4.80781470002378,17.0350244289656,64.1101742327735,True
2026-04-04 09:24:14,G3_Madieres_Femelle_adult_[FRP-BZ0226],43.8410119,3.527503,833.3,8.08,286.39,3.48536897725404,12.9701773092443,49.6549639202751,True
2026-04-04 09:24:15,G3_Madieres_Femelle_adult_[FRP-BZ0226],43.8410179,3.5274041,835.1,8.13,266.08,-2.95924161000496,13.9335841071371,30.1729580688935,True
2026-04-04 09:24:16,G3_Madieres_Femelle_adult_[FRP-BZ0226],43.8409912,3.5273072,836.5,8.89,237.9,0.490675014882684,15.4855767178585,11.5503473925587,True
2026-04-04 09:24:17,G3_Madieres_Femelle_adult_[FRP-BZ0226],43.8409282,3.5272275,837.1,10.27,212.99,8.66547533230746,14.7488719137647,-0.82244618259115,True
2026-04-04 09:24:18,G3_Madieres_Femelle_adult_[FRP-BZ0226],43.840834,3.5271743,836.7,12.2,195.95,19.5926687012248,14.5700703243451,-10.2740124833196,True
2026-04-04 09:24:19,G3_Madieres_Femelle_adult_[FRP-BZ0226],43.8407231,3.5271275,836.2,13.32,197.26,11.4206351392553,13.9484319976598,-11.1339208621988,True
2026-04-04 09:24:20,G3_Madieres_Femelle_adult_[FRP-BZ0226],43.8406057,3.5270723,835.8,14.14,199.23,6.6760099535826,12.7751466168785,-7.93143854994545,True
2026-04-04 09:24:21,G3_Madieres_Femelle_adult_[FRP-BZ0226],43.8404817,3.5270126,835.0,14.96,198.57,3.46280459980556,11.3344122317815,-8.58617516078994,True
2026-04-04 09:24:22,G3_Madieres_Femelle_adult_[FRP-BZ0226],43.8403509,3.5269518,834.3,15.64,197.92,5.19206263861369,12.7587394123026,-8.59112254607391,True
2026-04-04 09:24:23,G3_Madieres_Femelle_adult_[FRP-BZ0226],43.8402173,3.5268906,834.2,15.68,197.92,4.9723863185834,8.71510311389747,-4.20525684447276,True
2026-04-04 09:24:24,G3_Madieres_Femelle_adult_[FRP-BZ0226],43.8400858,3.5268281,833.9,15.34,199.23,4.6629882590882,9.20579855239012,-2.11412170116215,True
2026-04-04 09:24:25,G3_Madieres_Femelle_adult_[FRP-BZ0226],43.8399566,3.5267606,833.4,15.36,201.2,3.57013648211657,5.91817357968957,2.40991780621007,True
2026-04-04 09:24:26,G3_Madieres_Femelle_adult_[FRP-BZ0226],43.8398307,3.526686,832.5,15.1,203.82,0.889053659964971,3.96866474099481,5.07386043883366,True
2026-04-04 09:24:27,G3_Madieres_Femelle_adult_[FRP-BZ0226],43.8397069,3.5266038,830.8,15.35,206.44,2.41039238509725,7.57431791624087,10.9542312109722,True
2026-04-04 09:24:28,G3_Madieres_Femelle_adult_[FRP-BZ0226],43.8395838,3.5265115,828.8,15.72,209.72,0.954426434037326,7.71951752778692,11.8474050072669,True
2026-04-04 09:24:29,G3_Madieres_Femelle_adult_[FRP-BZ0226],43.8394648,3.52641,827.5,15.46,212.34,1.07469463907823,7.67124076464237,13.0881684027066,True
2026-04-04 09:24:30,G3_Madieres_Femelle_adult_[FRP-BZ0226],43.8393507,3.5263013,826.3,15.35,215.61,5.08882044836668,12.4339087345822,14.6244134957144,True
2026-04-04 09:24:31,G3_Madieres_Femelle_adult_[FRP-BZ0226],43.8392474,3.5261828,826.2,14.68,222.17,0.937150161020329,8.63850206264745,19.3129266281331,True
2026-04-04 09:24:32,G3_Madieres_Femelle_adult_[FRP-BZ0226],43.8391571,3.5260577,826.3,13.93,226.75,0.25726186543779,7.15865249271987,24.0009239012236,True
2026-04-04 09:24:33,G3_Madieres_Femelle_adult_[FRP-BZ0226],43.8390751,3.5259276,825.9,13.84,230.03,-0.933995870935951,10.2543185346493,25.8270333233782,True
2026-04-04 09:24:34,G3_Madieres_Femelle_adult_[FRP-BZ0226],43.8389968,3.5257906,825.8,14.2,232.0,-0.186107802861241,9.90426368477113,27.6081825467273,True
2026-04-04 09:24:35,G3_Madieres_Femelle_adult_[FRP-BZ0226],43.8389196,3.5256475,826.1,14.46,233.31,2.53156583694696,8.7483503823569,26.9039796460072,True
2026-04-04 09:24:36,G3_Madieres_Femelle_adult_[FRP-BZ0226],43.8388447,3.5254998,826.8,14.55,235.27,2.3889998800437,0.944601438464027,28.5915902180164,True
2026-04-04 09:24:37,G3_Madieres_Femelle_adult_[FRP-BZ0226],43.8387742,3.5253511,825.6,14.08,237.24,1.51192872301785,1.32854731518086,31.8509436909653,True
2026-04-04 09:24:38,G3_Madieres_Femelle_adult_[FRP-BZ0226],43.8387065,3.5251962,822.4,14.85,239.21,-0.398486681949248,9.03638509465242,31.8159916828307,True
